name,longitude,latitude
Masjid Mohammad Jamalul Alam,114.1904996,4.5852151
Balai Ibadat Kampong Melilas,114.66090496335256,4.257895216459671
Masjid STKRJ Lorong 3,114.32838209241287,4.6007070520941555
Masjid Pekan Seria,114.33427073237323,4.615941446349221
Balai Ibadat Kampong Merangking,114.57863288262956,4.5225697452027065
Balai Ibadat Kampong Sukang,114.62519519612009,4.31158865906157
Masjid Al-Mashor,114.49019888448353,4.555390188254131
Masjid Kampong Bukit Sawat,114.55027519241261,4.523612935865245
Masjid Kampong Labi,114.46509197150523,4.418724155874466
